{
    "totals": {
        "male": 109273,
        "fem": 102787,
        "5_14": 145393,
        "15_19": 66667,
        "total": 212060
    },
    "communities": [
        {
            "name": "MIDNAPORE",
            "fem_5_14": 331,
            "fem_15_19": 170,
            "male_5_14": 361,
            "male_15_19": 205,
            "total_male": 566,
            "total_fem": 501,
            "total_5_14": 692,
            "total_15_19": 375,
            "total": 1067,
            "location": {
                "lat": 50.911473,
                "lng": -114.0504261
            }
        },
        {
            "name": "COUNTRY HILLS VILLAGE",
            "fem_5_14": 80,
            "fem_15_19": 37,
            "male_5_14": 91,
            "male_15_19": 27,
            "total_male": 118,
            "total_fem": 117,
            "total_5_14": 171,
            "total_15_19": 64,
            "total": 235,
            "location": {
                "lat": 51.1580756,
                "lng": -114.0618719
            }
        },
        {
            "name": "FAIRVIEW",
            "fem_5_14": 195,
            "fem_15_19": 90,
            "male_5_14": 170,
            "male_15_19": 87,
            "total_male": 257,
            "total_fem": 285,
            "total_5_14": 365,
            "total_15_19": 177,
            "total": 542,
            "location": {
                "lat": 50.9857118,
                "lng": -114.0648637
            }
        },
        {
            "name": "BEL-AIRE",
            "fem_5_14": 20,
            "fem_15_19": 26,
            "male_5_14": 22,
            "male_15_19": 14,
            "total_male": 36,
            "total_fem": 46,
            "total_5_14": 42,
            "total_15_19": 40,
            "total": 82,
            "location": {
                "lat": 50.99904739999999,
                "lng": -114.0892809
            }
        },
        {
            "name": "PATTERSON",
            "fem_5_14": 184,
            "fem_15_19": 99,
            "male_5_14": 194,
            "male_15_19": 96,
            "total_male": 290,
            "total_fem": 283,
            "total_5_14": 378,
            "total_15_19": 195,
            "total": 573,
            "location": {
                "lat": 51.062963,
                "lng": -114.174517
            }
        },
        {
            "name": "SOUTH CALGARY",
            "fem_5_14": 121,
            "fem_15_19": 40,
            "male_5_14": 128,
            "male_15_19": 37,
            "total_male": 165,
            "total_fem": 161,
            "total_5_14": 249,
            "total_15_19": 77,
            "total": 326,
            "location": {
                "lat": 51.027223,
                "lng": -114.1028042
            }
        },
        {
            "name": "RIDEAU PARK",
            "fem_5_14": 27,
            "fem_15_19": 9,
            "male_5_14": 19,
            "male_15_19": 17,
            "total_male": 36,
            "total_fem": 36,
            "total_5_14": 46,
            "total_15_19": 26,
            "total": 72,
            "location": {
                "lat": 51.0260131,
                "lng": -114.0671845
            }
        },
        {
            "name": "SIGNAL HILL",
            "fem_5_14": 716,
            "fem_15_19": 497,
            "male_5_14": 769,
            "male_15_19": 534,
            "total_male": 1303,
            "total_fem": 1213,
            "total_5_14": 1485,
            "total_15_19": 1031,
            "total": 2516,
            "location": {
                "lat": 51.0218027,
                "lng": -114.1780703
            }
        },
        {
            "name": "CAMBRIAN HEIGHTS",
            "fem_5_14": 99,
            "fem_15_19": 56,
            "male_5_14": 100,
            "male_15_19": 50,
            "total_male": 150,
            "total_fem": 155,
            "total_5_14": 199,
            "total_15_19": 106,
            "total": 305,
            "location": {
                "lat": 51.0841635,
                "lng": -114.089091
            }
        },
        {
            "name": "BRITANNIA",
            "fem_5_14": 45,
            "fem_15_19": 22,
            "male_5_14": 44,
            "male_15_19": 26,
            "total_male": 70,
            "total_fem": 67,
            "total_5_14": 89,
            "total_15_19": 48,
            "total": 137,
            "location": {
                "lat": 51.0157547,
                "lng": -114.085636
            }
        },
        {
            "name": "CRESTMONT",
            "fem_5_14": 141,
            "fem_15_19": 50,
            "male_5_14": 152,
            "male_15_19": 36,
            "total_male": 188,
            "total_fem": 191,
            "total_5_14": 293,
            "total_15_19": 86,
            "total": 379,
            "location": {
                "lat": 51.0844759,
                "lng": -114.264779
            }
        },
        {
            "name": "WEST HILLHURST",
            "fem_5_14": 300,
            "fem_15_19": 117,
            "male_5_14": 355,
            "male_15_19": 132,
            "total_male": 487,
            "total_fem": 417,
            "total_5_14": 655,
            "total_15_19": 249,
            "total": 904,
            "location": {
                "lat": 51.0519156,
                "lng": -114.116492
            }
        },
        {
            "name": "ROSSCARROCK",
            "fem_5_14": 194,
            "fem_15_19": 59,
            "male_5_14": 219,
            "male_15_19": 60,
            "total_male": 279,
            "total_fem": 253,
            "total_5_14": 413,
            "total_15_19": 119,
            "total": 532,
            "location": {
                "lat": 51.0415418,
                "lng": -114.1448913
            }
        },
        {
            "name": "KILLARNEY/GLENGARRY",
            "fem_5_14": 299,
            "fem_15_19": 122,
            "male_5_14": 298,
            "male_15_19": 121,
            "total_male": 419,
            "total_fem": 421,
            "total_5_14": 597,
            "total_15_19": 243,
            "total": 840,
            "location": {
                "lat": 51.03157179999999,
                "lng": -114.1335238
            }
        },
        {
            "name": "CANYON MEADOWS",
            "fem_5_14": 363,
            "fem_15_19": 207,
            "male_5_14": 343,
            "male_15_19": 233,
            "total_male": 576,
            "total_fem": 570,
            "total_5_14": 706,
            "total_15_19": 440,
            "total": 1146,
            "location": {
                "lat": 50.94372509999999,
                "lng": -114.0798611
            }
        },
        {
            "name": "HAMPTONS",
            "fem_5_14": 354,
            "fem_15_19": 330,
            "male_5_14": 407,
            "male_15_19": 358,
            "total_male": 765,
            "total_fem": 684,
            "total_5_14": 761,
            "total_15_19": 688,
            "total": 1449,
            "location": {
                "lat": 51.1447887,
                "lng": -114.1480399
            }
        },
        {
            "name": "CITYSCAPE",
            "fem_5_14": 136,
            "fem_15_19": 32,
            "male_5_14": 129,
            "male_15_19": 49,
            "total_male": 178,
            "total_fem": 168,
            "total_5_14": 265,
            "total_15_19": 81,
            "total": 346,
            "location": {
                "lat": 51.1489981,
                "lng": -113.9674404
            }
        },
        {
            "name": "MAPLE RIDGE",
            "fem_5_14": 93,
            "fem_15_19": 42,
            "male_5_14": 102,
            "male_15_19": 47,
            "total_male": 149,
            "total_fem": 135,
            "total_5_14": 195,
            "total_15_19": 89,
            "total": 284,
            "location": {
                "lat": 50.9572952,
                "lng": -114.0367162
            }
        },
        {
            "name": "AUBURN BAY",
            "fem_5_14": 1146,
            "fem_15_19": 293,
            "male_5_14": 1241,
            "male_15_19": 308,
            "total_male": 1549,
            "total_fem": 1439,
            "total_5_14": 2387,
            "total_15_19": 601,
            "total": 2988,
            "location": {
                "lat": 50.8905626,
                "lng": -113.9641873
            }
        },
        {
            "name": "CHAPARRAL",
            "fem_5_14": 1180,
            "fem_15_19": 486,
            "male_5_14": 1305,
            "male_15_19": 579,
            "total_male": 1884,
            "total_fem": 1666,
            "total_5_14": 2485,
            "total_15_19": 1065,
            "total": 3550,
            "location": {
                "lat": 50.8868258,
                "lng": -114.0368292
            }
        },
        {
            "name": "BRENTWOOD",
            "fem_5_14": 288,
            "fem_15_19": 170,
            "male_5_14": 305,
            "male_15_19": 178,
            "total_male": 483,
            "total_fem": 458,
            "total_5_14": 593,
            "total_15_19": 348,
            "total": 941,
            "location": {
                "lat": 51.0983362,
                "lng": -114.1322484
            }
        },
        {
            "name": "SCARBORO",
            "fem_5_14": 65,
            "fem_15_19": 23,
            "male_5_14": 75,
            "male_15_19": 32,
            "total_male": 107,
            "total_fem": 88,
            "total_5_14": 140,
            "total_15_19": 55,
            "total": 195,
            "location": {
                "lat": 51.0403154,
                "lng": -114.1125582
            }
        },
        {
            "name": "MEDICINE HILL",
            "fem_5_14": 0,
            "fem_15_19": 0,
            "male_5_14": 0,
            "male_15_19": 0,
            "total_male": 0,
            "total_fem": 0,
            "total_5_14": 0,
            "total_15_19": 0,
            "total": 0,
            "location": {
                "lat": 51.1577937,
                "lng": -114.161777
            }
        },
        {
            "name": "HIGHLAND PARK",
            "fem_5_14": 124,
            "fem_15_19": 69,
            "male_5_14": 138,
            "male_15_19": 80,
            "total_male": 218,
            "total_fem": 193,
            "total_5_14": 262,
            "total_15_19": 149,
            "total": 411,
            "location": {
                "lat": 51.0912437,
                "lng": -114.0632825
            }
        },
        {
            "name": "BELTLINE",
            "fem_5_14": 211,
            "fem_15_19": 169,
            "male_5_14": 202,
            "male_15_19": 157,
            "total_male": 359,
            "total_fem": 380,
            "total_5_14": 413,
            "total_15_19": 326,
            "total": 739,
            "location": {
                "lat": 51.0413217,
                "lng": -114.0889692
            }
        },
        {
            "name": "HUNTINGTON HILLS",
            "fem_5_14": 669,
            "fem_15_19": 307,
            "male_5_14": 711,
            "male_15_19": 356,
            "total_male": 1067,
            "total_fem": 976,
            "total_5_14": 1380,
            "total_15_19": 663,
            "total": 2043,
            "location": {
                "lat": 51.1175928,
                "lng": -114.069518
            }
        },
        {
            "name": "GREENVIEW",
            "fem_5_14": 62,
            "fem_15_19": 31,
            "male_5_14": 39,
            "male_15_19": 26,
            "total_male": 65,
            "total_fem": 93,
            "total_5_14": 101,
            "total_15_19": 57,
            "total": 158,
            "location": {
                "lat": 51.1033428,
                "lng": -114.0568954
            }
        },
        {
            "name": "DOWNTOWN COMMERCIAL CORE",
            "fem_5_14": 153,
            "fem_15_19": 66,
            "male_5_14": 166,
            "male_15_19": 65,
            "total_male": 231,
            "total_fem": 219,
            "total_5_14": 319,
            "total_15_19": 131,
            "total": 450,
            "location": {
                "lat": 51.045956,
                "lng": -114.069129
            }
        },
        {
            "name": "MOUNT PLEASANT",
            "fem_5_14": 225,
            "fem_15_19": 73,
            "male_5_14": 248,
            "male_15_19": 68,
            "total_male": 316,
            "total_fem": 298,
            "total_5_14": 473,
            "total_15_19": 141,
            "total": 614,
            "location": {
                "lat": 51.0732674,
                "lng": -114.0758363
            }
        },
        {
            "name": "SCARBORO/ SUNALTA WEST",
            "fem_5_14": 23,
            "fem_15_19": 10,
            "male_5_14": 27,
            "male_15_19": 11,
            "total_male": 38,
            "total_fem": 33,
            "total_5_14": 50,
            "total_15_19": 21,
            "total": 71,
            "location": {
                "lat": 51.0404255,
                "lng": -114.1012111
            }
        },
        {
            "name": "CHARLESWOOD",
            "fem_5_14": 167,
            "fem_15_19": 84,
            "male_5_14": 201,
            "male_15_19": 89,
            "total_male": 290,
            "total_fem": 251,
            "total_5_14": 368,
            "total_15_19": 173,
            "total": 541,
            "location": {
                "lat": 51.0868609,
                "lng": -114.1150376
            }
        },
        {
            "name": "CEDARBRAE",
            "fem_5_14": 325,
            "fem_15_19": 139,
            "male_5_14": 352,
            "male_15_19": 131,
            "total_male": 483,
            "total_fem": 464,
            "total_5_14": 677,
            "total_15_19": 270,
            "total": 947,
            "location": {
                "lat": 50.9556677,
                "lng": -114.1263465
            }
        },
        {
            "name": "GREENWOOD/GREENBRIAR",
            "fem_5_14": 31,
            "fem_15_19": 31,
            "male_5_14": 25,
            "male_15_19": 30,
            "total_male": 55,
            "total_fem": 62,
            "total_5_14": 56,
            "total_15_19": 61,
            "total": 117,
            "location": {
                "lat": 51.0903565,
                "lng": -114.225466
            }
        },
        {
            "name": "TUSCANY",
            "fem_5_14": 1961,
            "fem_15_19": 627,
            "male_5_14": 2033,
            "male_15_19": 594,
            "total_male": 2627,
            "total_fem": 2588,
            "total_5_14": 3994,
            "total_15_19": 1221,
            "total": 5215,
            "location": {
                "lat": 51.1235364,
                "lng": -114.2448431
            }
        },
        {
            "name": "PUMP HILL",
            "fem_5_14": 71,
            "fem_15_19": 27,
            "male_5_14": 65,
            "male_15_19": 42,
            "total_male": 107,
            "total_fem": 98,
            "total_5_14": 136,
            "total_15_19": 69,
            "total": 205,
            "location": {
                "lat": 50.9683241,
                "lng": -114.1001195
            }
        },
        {
            "name": "COUGAR RIDGE",
            "fem_5_14": 652,
            "fem_15_19": 222,
            "male_5_14": 723,
            "male_15_19": 199,
            "total_male": 922,
            "total_fem": 874,
            "total_5_14": 1375,
            "total_15_19": 421,
            "total": 1796,
            "location": {
                "lat": 51.073165,
                "lng": -114.219442
            }
        },
        {
            "name": "SILVER SPRINGS",
            "fem_5_14": 457,
            "fem_15_19": 221,
            "male_5_14": 480,
            "male_15_19": 280,
            "total_male": 760,
            "total_fem": 678,
            "total_5_14": 937,
            "total_15_19": 501,
            "total": 1438,
            "location": {
                "lat": 51.1070116,
                "lng": -114.1938355
            }
        },
        {
            "name": "HILLHURST",
            "fem_5_14": 231,
            "fem_15_19": 325,
            "male_5_14": 280,
            "male_15_19": 216,
            "total_male": 496,
            "total_fem": 556,
            "total_5_14": 511,
            "total_15_19": 541,
            "total": 1052,
            "location": {
                "lat": 51.05679079999999,
                "lng": -114.0942044
            }
        },
        {
            "name": "GLENDALE",
            "fem_5_14": 158,
            "fem_15_19": 65,
            "male_5_14": 162,
            "male_15_19": 95,
            "total_male": 257,
            "total_fem": 223,
            "total_5_14": 320,
            "total_15_19": 160,
            "total": 480,
            "location": {
                "lat": 51.0344883,
                "lng": -114.1518023
            }
        },
        {
            "name": "WOODBINE",
            "fem_5_14": 499,
            "fem_15_19": 229,
            "male_5_14": 502,
            "male_15_19": 295,
            "total_male": 797,
            "total_fem": 728,
            "total_5_14": 1001,
            "total_15_19": 524,
            "total": 1525,
            "location": {
                "lat": 50.9386032,
                "lng": -114.1285137
            }
        },
        {
            "name": "DOWNTOWN WEST END",
            "fem_5_14": 39,
            "fem_15_19": 12,
            "male_5_14": 39,
            "male_15_19": 18,
            "total_male": 57,
            "total_fem": 51,
            "total_5_14": 78,
            "total_15_19": 30,
            "total": 108,
            "location": {
                "lat": 51.0463743,
                "lng": -114.0880201
            }
        },
        {
            "name": "MCKENZIE TOWNE",
            "fem_5_14": 1231,
            "fem_15_19": 380,
            "male_5_14": 1291,
            "male_15_19": 395,
            "total_male": 1686,
            "total_fem": 1611,
            "total_5_14": 2522,
            "total_15_19": 775,
            "total": 3297,
            "location": {
                "lat": 50.9185282,
                "lng": -113.9667355
            }
        },
        {
            "name": "HIDDEN VALLEY",
            "fem_5_14": 845,
            "fem_15_19": 488,
            "male_5_14": 925,
            "male_15_19": 555,
            "total_male": 1480,
            "total_fem": 1333,
            "total_5_14": 1770,
            "total_15_19": 1043,
            "total": 2813,
            "location": {
                "lat": 51.1513095,
                "lng": -114.1182466
            }
        },
        {
            "name": "TARADALE",
            "fem_5_14": 1527,
            "fem_15_19": 582,
            "male_5_14": 1688,
            "male_15_19": 684,
            "total_male": 2372,
            "total_fem": 2109,
            "total_5_14": 3215,
            "total_15_19": 1266,
            "total": 4481,
            "location": {
                "lat": 51.11875509999999,
                "lng": -113.9368393
            }
        },
        {
            "name": "RUNDLE",
            "fem_5_14": 734,
            "fem_15_19": 389,
            "male_5_14": 775,
            "male_15_19": 396,
            "total_male": 1171,
            "total_fem": 1123,
            "total_5_14": 1509,
            "total_15_19": 785,
            "total": 2294,
            "location": {
                "lat": 51.07346399999999,
                "lng": -113.9668929
            }
        },
        {
            "name": "BRIDLEWOOD",
            "fem_5_14": 1062,
            "fem_15_19": 372,
            "male_5_14": 1077,
            "male_15_19": 388,
            "total_male": 1465,
            "total_fem": 1434,
            "total_5_14": 2139,
            "total_15_19": 760,
            "total": 2899,
            "location": {
                "lat": 50.8985261,
                "lng": -114.1096197
            }
        },
        {
            "name": "UNIVERSITY HEIGHTS",
            "fem_5_14": 102,
            "fem_15_19": 52,
            "male_5_14": 89,
            "male_15_19": 56,
            "total_male": 145,
            "total_fem": 154,
            "total_5_14": 191,
            "total_15_19": 108,
            "total": 299,
            "location": {
                "lat": 51.0703057,
                "lng": -114.1400334
            }
        },
        {
            "name": "SUNNYSIDE",
            "fem_5_14": 88,
            "fem_15_19": 38,
            "male_5_14": 85,
            "male_15_19": 35,
            "total_male": 120,
            "total_fem": 126,
            "total_5_14": 173,
            "total_15_19": 73,
            "total": 246,
            "location": {
                "lat": 51.0561702,
                "lng": -114.0780372
            }
        },
        {
            "name": "CAPITOL HILL",
            "fem_5_14": 161,
            "fem_15_19": 56,
            "male_5_14": 167,
            "male_15_19": 51,
            "total_male": 218,
            "total_fem": 217,
            "total_5_14": 328,
            "total_15_19": 107,
            "total": 435,
            "location": {
                "lat": 51.0722635,
                "lng": -114.0994432
            }
        },
        {
            "name": "BANKVIEW",
            "fem_5_14": 94,
            "fem_15_19": 32,
            "male_5_14": 92,
            "male_15_19": 38,
            "total_male": 130,
            "total_fem": 126,
            "total_5_14": 186,
            "total_15_19": 70,
            "total": 256,
            "location": {
                "lat": 51.03420759999999,
                "lng": -114.1025119
            }
        },
        {
            "name": "CLIFF BUNGALOW",
            "fem_5_14": 16,
            "fem_15_19": 9,
            "male_5_14": 17,
            "male_15_19": 16,
            "total_male": 33,
            "total_fem": 25,
            "total_5_14": 33,
            "total_15_19": 25,
            "total": 58,
            "location": {
                "lat": 51.0329351,
                "lng": -114.0735082
            }
        },
        {
            "name": "RIVERBEND",
            "fem_5_14": 405,
            "fem_15_19": 323,
            "male_5_14": 441,
            "male_15_19": 346,
            "total_male": 787,
            "total_fem": 728,
            "total_5_14": 846,
            "total_15_19": 669,
            "total": 1515,
            "location": {
                "lat": 50.97373280000001,
                "lng": -114.0183839
            }
        },
        {
            "name": "CHINATOWN",
            "fem_5_14": 21,
            "fem_15_19": 21,
            "male_5_14": 17,
            "male_15_19": 15,
            "total_male": 32,
            "total_fem": 42,
            "total_5_14": 38,
            "total_15_19": 36,
            "total": 74,
            "location": {
                "lat": 51.0494357,
                "lng": -114.0615052
            }
        },
        {
            "name": "TEMPLE",
            "fem_5_14": 707,
            "fem_15_19": 334,
            "male_5_14": 764,
            "male_15_19": 355,
            "total_male": 1119,
            "total_fem": 1041,
            "total_5_14": 1471,
            "total_15_19": 689,
            "total": 2160,
            "location": {
                "lat": 51.1407089,
                "lng": -114.2334496
            }
        },
        {
            "name": "BRAESIDE",
            "fem_5_14": 291,
            "fem_15_19": 133,
            "male_5_14": 281,
            "male_15_19": 142,
            "total_male": 423,
            "total_fem": 424,
            "total_5_14": 572,
            "total_15_19": 275,
            "total": 847,
            "location": {
                "lat": 50.9543064,
                "lng": -114.1073117
            }
        },
        {
            "name": "CITADEL",
            "fem_5_14": 726,
            "fem_15_19": 377,
            "male_5_14": 778,
            "male_15_19": 442,
            "total_male": 1220,
            "total_fem": 1103,
            "total_5_14": 1504,
            "total_15_19": 819,
            "total": 2323,
            "location": {
                "lat": 51.1474944,
                "lng": -114.1863178
            }
        },
        {
            "name": "MONTGOMERY",
            "fem_5_14": 151,
            "fem_15_19": 67,
            "male_5_14": 163,
            "male_15_19": 56,
            "total_male": 219,
            "total_fem": 218,
            "total_5_14": 314,
            "total_15_19": 123,
            "total": 437,
            "location": {
                "lat": 51.074714,
                "lng": -114.1641658
            }
        },
        {
            "name": "HARVEST HILLS",
            "fem_5_14": 441,
            "fem_15_19": 262,
            "male_5_14": 483,
            "male_15_19": 327,
            "total_male": 810,
            "total_fem": 703,
            "total_5_14": 924,
            "total_15_19": 589,
            "total": 1513,
            "location": {
                "lat": 51.14882679999999,
                "lng": -114.0534198
            }
        },
        {
            "name": "OGDEN",
            "fem_5_14": 409,
            "fem_15_19": 137,
            "male_5_14": 468,
            "male_15_19": 193,
            "total_male": 661,
            "total_fem": 546,
            "total_5_14": 877,
            "total_15_19": 330,
            "total": 1207,
            "location": {
                "lat": 50.9850535,
                "lng": -114.0157642
            }
        },
        {
            "name": "KELVIN GROVE",
            "fem_5_14": 112,
            "fem_15_19": 49,
            "male_5_14": 109,
            "male_15_19": 47,
            "total_male": 156,
            "total_fem": 161,
            "total_5_14": 221,
            "total_15_19": 96,
            "total": 317,
            "location": {
                "lat": 50.990135,
                "lng": -114.088921
            }
        },
        {
            "name": "PENBROOKE MEADOWS",
            "fem_5_14": 484,
            "fem_15_19": 195,
            "male_5_14": 543,
            "male_15_19": 232,
            "total_male": 775,
            "total_fem": 679,
            "total_5_14": 1027,
            "total_15_19": 427,
            "total": 1454,
            "location": {
                "lat": 51.0441168,
                "lng": -113.9491122
            }
        },
        {
            "name": "POINT MCKAY",
            "fem_5_14": 18,
            "fem_15_19": 10,
            "male_5_14": 21,
            "male_15_19": 11,
            "total_male": 32,
            "total_fem": 28,
            "total_5_14": 39,
            "total_15_19": 21,
            "total": 60,
            "location": {
                "lat": 51.0601281,
                "lng": -114.1485512
            }
        },
        {
            "name": "RUTLAND PARK",
            "fem_5_14": 120,
            "fem_15_19": 55,
            "male_5_14": 119,
            "male_15_19": 59,
            "total_male": 178,
            "total_fem": 175,
            "total_5_14": 239,
            "total_15_19": 114,
            "total": 353,
            "location": {
                "lat": 51.0214688,
                "lng": -114.1354095
            }
        },
        {
            "name": "WALDEN",
            "fem_5_14": 245,
            "fem_15_19": 95,
            "male_5_14": 258,
            "male_15_19": 90,
            "total_male": 348,
            "total_fem": 340,
            "total_5_14": 503,
            "total_15_19": 185,
            "total": 688,
            "location": {
                "lat": 50.8744461,
                "lng": -114.0366305
            }
        },
        {
            "name": "RAMSAY",
            "fem_5_14": 75,
            "fem_15_19": 29,
            "male_5_14": 60,
            "male_15_19": 34,
            "total_male": 94,
            "total_fem": 104,
            "total_5_14": 135,
            "total_15_19": 63,
            "total": 198,
            "location": {
                "lat": 51.0363305,
                "lng": -114.0421038
            }
        },
        {
            "name": "MARLBOROUGH",
            "fem_5_14": 426,
            "fem_15_19": 187,
            "male_5_14": 499,
            "male_15_19": 221,
            "total_male": 720,
            "total_fem": 613,
            "total_5_14": 925,
            "total_15_19": 408,
            "total": 1333,
            "location": {
                "lat": 51.0609899,
                "lng": -113.9733443
            }
        },
        {
            "name": "WEST SPRINGS",
            "fem_5_14": 1052,
            "fem_15_19": 258,
            "male_5_14": 1095,
            "male_15_19": 329,
            "total_male": 1424,
            "total_fem": 1310,
            "total_5_14": 2147,
            "total_15_19": 587,
            "total": 2734,
            "location": {
                "lat": 51.0619445,
                "lng": -114.1970944
            }
        },
        {
            "name": "MANCHESTER",
            "fem_5_14": 22,
            "fem_15_19": 7,
            "male_5_14": 32,
            "male_15_19": 42,
            "total_male": 74,
            "total_fem": 29,
            "total_5_14": 54,
            "total_15_19": 49,
            "total": 103,
            "location": {
                "lat": 51.0091445,
                "lng": -114.0462227
            }
        },
        {
            "name": "GARRISON GREEN",
            "fem_5_14": 123,
            "fem_15_19": 29,
            "male_5_14": 125,
            "male_15_19": 20,
            "total_male": 145,
            "total_fem": 152,
            "total_5_14": 248,
            "total_15_19": 49,
            "total": 297,
            "location": {
                "lat": 51.0052541,
                "lng": -114.1274972
            }
        },
        {
            "name": "MACEWAN GLEN",
            "fem_5_14": 278,
            "fem_15_19": 158,
            "male_5_14": 329,
            "male_15_19": 168,
            "total_male": 497,
            "total_fem": 436,
            "total_5_14": 607,
            "total_15_19": 326,
            "total": 933,
            "location": {
                "lat": 51.1404387,
                "lng": -114.117225
            }
        },
        {
            "name": "DEER RIDGE",
            "fem_5_14": 269,
            "fem_15_19": 109,
            "male_5_14": 270,
            "male_15_19": 150,
            "total_male": 420,
            "total_fem": 378,
            "total_5_14": 539,
            "total_15_19": 259,
            "total": 798,
            "location": {
                "lat": 50.9280176,
                "lng": -114.0189178
            }
        },
        {
            "name": "MONTEREY PARK",
            "fem_5_14": 606,
            "fem_15_19": 361,
            "male_5_14": 647,
            "male_15_19": 387,
            "total_male": 1034,
            "total_fem": 967,
            "total_5_14": 1253,
            "total_15_19": 748,
            "total": 2001,
            "location": {
                "lat": 51.0815903,
                "lng": -113.9291389
            }
        },
        {
            "name": "DISCOVERY RIDGE",
            "fem_5_14": 334,
            "fem_15_19": 161,
            "male_5_14": 357,
            "male_15_19": 201,
            "total_male": 558,
            "total_fem": 495,
            "total_5_14": 691,
            "total_15_19": 362,
            "total": 1053,
            "location": {
                "lat": 51.013647,
                "lng": -114.2151863
            }
        },
        {
            "name": "SOUTHVIEW",
            "fem_5_14": 60,
            "fem_15_19": 30,
            "male_5_14": 72,
            "male_15_19": 32,
            "total_male": 104,
            "total_fem": 90,
            "total_5_14": 132,
            "total_15_19": 62,
            "total": 194,
            "location": {
                "lat": 51.0344328,
                "lng": -113.993658
            }
        },
        {
            "name": "CURRIE BARRACKS",
            "fem_5_14": 48,
            "fem_15_19": 21,
            "male_5_14": 51,
            "male_15_19": 9,
            "total_male": 60,
            "total_fem": 69,
            "total_5_14": 99,
            "total_15_19": 30,
            "total": 129,
            "location": {
                "lat": 51.0184836,
                "lng": -114.1237628
            }
        },
        {
            "name": "LOWER MOUNT ROYAL",
            "fem_5_14": 28,
            "fem_15_19": 22,
            "male_5_14": 30,
            "male_15_19": 22,
            "total_male": 52,
            "total_fem": 50,
            "total_5_14": 58,
            "total_15_19": 44,
            "total": 102,
            "location": {
                "lat": 51.0363331,
                "lng": -114.0832946
            }
        },
        {
            "name": "DEER RUN",
            "fem_5_14": 251,
            "fem_15_19": 130,
            "male_5_14": 268,
            "male_15_19": 144,
            "total_male": 412,
            "total_fem": 381,
            "total_5_14": 519,
            "total_15_19": 274,
            "total": 793,
            "location": {
                "lat": 50.918052,
                "lng": -114.008348
            }
        },
        {
            "name": "BAYVIEW",
            "fem_5_14": 41,
            "fem_15_19": 24,
            "male_5_14": 50,
            "male_15_19": 17,
            "total_male": 67,
            "total_fem": 65,
            "total_5_14": 91,
            "total_15_19": 41,
            "total": 132,
            "location": {
                "lat": 50.9747992,
                "lng": -114.1116029
            }
        },
        {
            "name": "WILDWOOD",
            "fem_5_14": 158,
            "fem_15_19": 68,
            "male_5_14": 164,
            "male_15_19": 65,
            "total_male": 229,
            "total_fem": 226,
            "total_5_14": 322,
            "total_15_19": 133,
            "total": 455,
            "location": {
                "lat": 51.0538866,
                "lng": -114.1517508
            }
        },
        {
            "name": "MILLRISE",
            "fem_5_14": 384,
            "fem_15_19": 198,
            "male_5_14": 383,
            "male_15_19": 199,
            "total_male": 582,
            "total_fem": 582,
            "total_5_14": 767,
            "total_15_19": 397,
            "total": 1164,
            "location": {
                "lat": 50.91658,
                "lng": -114.0839377
            }
        },
        {
            "name": "RENFREW",
            "fem_5_14": 253,
            "fem_15_19": 92,
            "male_5_14": 241,
            "male_15_19": 76,
            "total_male": 317,
            "total_fem": 345,
            "total_5_14": 494,
            "total_15_19": 168,
            "total": 662,
            "location": {
                "lat": 51.0635286,
                "lng": -114.0379773
            }
        },
        {
            "name": "NORTH HAVEN UPPER",
            "fem_5_14": 29,
            "fem_15_19": 16,
            "male_5_14": 25,
            "male_15_19": 15,
            "total_male": 40,
            "total_fem": 45,
            "total_5_14": 54,
            "total_15_19": 31,
            "total": 85,
            "location": {
                "lat": 51.102778,
                "lng": -114.083333
            }
        },
        {
            "name": "INGLEWOOD",
            "fem_5_14": 95,
            "fem_15_19": 47,
            "male_5_14": 117,
            "male_15_19": 36,
            "total_male": 153,
            "total_fem": 142,
            "total_5_14": 212,
            "total_15_19": 83,
            "total": 295,
            "location": {
                "lat": 51.034201,
                "lng": -114.020136
            }
        },
        {
            "name": "EAGLE RIDGE",
            "fem_5_14": 15,
            "fem_15_19": 9,
            "male_5_14": 10,
            "male_15_19": 13,
            "total_male": 23,
            "total_fem": 24,
            "total_5_14": 25,
            "total_15_19": 22,
            "total": 47,
            "location": {
                "lat": 50.9853967,
                "lng": -114.0979371
            }
        },
        {
            "name": "DOWNTOWN EAST VILLAGE",
            "fem_5_14": 16,
            "fem_15_19": 23,
            "male_5_14": 8,
            "male_15_19": 84,
            "total_male": 92,
            "total_fem": 39,
            "total_5_14": 24,
            "total_15_19": 107,
            "total": 131,
            "location": {
                "lat": 51.0463759,
                "lng": -114.0505705
            }
        },
        {
            "name": "LINCOLN PARK",
            "fem_5_14": 50,
            "fem_15_19": 287,
            "male_5_14": 83,
            "male_15_19": 126,
            "total_male": 209,
            "total_fem": 337,
            "total_5_14": 133,
            "total_15_19": 413,
            "total": 546,
            "location": {
                "lat": 51.0098753,
                "lng": -114.1314717
            }
        },
        {
            "name": "STRATHCONA PARK",
            "fem_5_14": 536,
            "fem_15_19": 252,
            "male_5_14": 501,
            "male_15_19": 280,
            "total_male": 781,
            "total_fem": 788,
            "total_5_14": 1037,
            "total_15_19": 532,
            "total": 1569,
            "location": {
                "lat": 51.048998,
                "lng": -114.1740392
            }
        },
        {
            "name": "CHRISTIE PARK",
            "fem_5_14": 90,
            "fem_15_19": 82,
            "male_5_14": 96,
            "male_15_19": 66,
            "total_male": 162,
            "total_fem": 172,
            "total_5_14": 186,
            "total_15_19": 148,
            "total": 334,
            "location": {
                "lat": 51.0396364,
                "lng": -114.1788312
            }
        },
        {
            "name": "EAU CLAIRE",
            "fem_5_14": 14,
            "fem_15_19": 5,
            "male_5_14": 11,
            "male_15_19": 7,
            "total_male": 18,
            "total_fem": 19,
            "total_5_14": 25,
            "total_15_19": 12,
            "total": 37,
            "location": {
                "lat": 51.0534879,
                "lng": -114.0744715
            }
        },
        {
            "name": "MCKENZIE LAKE",
            "fem_5_14": 804,
            "fem_15_19": 595,
            "male_5_14": 984,
            "male_15_19": 666,
            "total_male": 1650,
            "total_fem": 1399,
            "total_5_14": 1788,
            "total_15_19": 1261,
            "total": 3049,
            "location": {
                "lat": 50.9151645,
                "lng": -113.9828345
            }
        },
        {
            "name": "MAYFAIR",
            "fem_5_14": 39,
            "fem_15_19": 18,
            "male_5_14": 40,
            "male_15_19": 15,
            "total_male": 55,
            "total_fem": 57,
            "total_5_14": 79,
            "total_15_19": 33,
            "total": 112,
            "location": {
                "lat": 50.9963361,
                "lng": -114.0890275
            }
        },
        {
            "name": "SOUTHWOOD",
            "fem_5_14": 298,
            "fem_15_19": 164,
            "male_5_14": 313,
            "male_15_19": 169,
            "total_male": 482,
            "total_fem": 462,
            "total_5_14": 611,
            "total_15_19": 333,
            "total": 944,
            "location": {
                "lat": 50.9545615,
                "lng": -114.080872
            }
        },
        {
            "name": "ROSEDALE",
            "fem_5_14": 92,
            "fem_15_19": 48,
            "male_5_14": 88,
            "male_15_19": 47,
            "total_male": 135,
            "total_fem": 140,
            "total_5_14": 180,
            "total_15_19": 95,
            "total": 275,
            "location": {
                "lat": 51.06390649999999,
                "lng": -114.0806525
            }
        },
        {
            "name": "MISSION",
            "fem_5_14": 14,
            "fem_15_19": 8,
            "male_5_14": 16,
            "male_15_19": 16,
            "total_male": 32,
            "total_fem": 22,
            "total_5_14": 30,
            "total_15_19": 24,
            "total": 54,
            "location": {
                "lat": 51.0313814,
                "lng": -114.0675961
            }
        },
        {
            "name": "GLENBROOK",
            "fem_5_14": 402,
            "fem_15_19": 160,
            "male_5_14": 416,
            "male_15_19": 166,
            "total_male": 582,
            "total_fem": 562,
            "total_5_14": 818,
            "total_15_19": 326,
            "total": 1144,
            "location": {
                "lat": 51.0266897,
                "lng": -114.155798
            }
        },
        {
            "name": "TUXEDO PARK",
            "fem_5_14": 154,
            "fem_15_19": 84,
            "male_5_14": 157,
            "male_15_19": 79,
            "total_male": 236,
            "total_fem": 238,
            "total_5_14": 311,
            "total_15_19": 163,
            "total": 474,
            "location": {
                "lat": 51.0733926,
                "lng": -114.0625777
            }
        },
        {
            "name": "ST. ANDREWS HEIGHTS",
            "fem_5_14": 53,
            "fem_15_19": 31,
            "male_5_14": 60,
            "male_15_19": 33,
            "total_male": 93,
            "total_fem": 84,
            "total_5_14": 113,
            "total_15_19": 64,
            "total": 177,
            "location": {
                "lat": 51.0650117,
                "lng": -114.1262573
            }
        },
        {
            "name": "ELBOW PARK",
            "fem_5_14": 271,
            "fem_15_19": 113,
            "male_5_14": 247,
            "male_15_19": 123,
            "total_male": 370,
            "total_fem": 384,
            "total_5_14": 518,
            "total_15_19": 236,
            "total": 754,
            "location": {
                "lat": 51.0219902,
                "lng": -114.0824309
            }
        },
        {
            "name": "COPPERFIELD",
            "fem_5_14": 891,
            "fem_15_19": 257,
            "male_5_14": 975,
            "male_15_19": 254,
            "total_male": 1229,
            "total_fem": 1148,
            "total_5_14": 1866,
            "total_15_19": 511,
            "total": 2377,
            "location": {
                "lat": 50.91243249999999,
                "lng": -113.9382663
            }
        },
        {
            "name": "SHAGANAPPI",
            "fem_5_14": 57,
            "fem_15_19": 24,
            "male_5_14": 73,
            "male_15_19": 39,
            "total_male": 112,
            "total_fem": 81,
            "total_5_14": 130,
            "total_15_19": 63,
            "total": 193,
            "location": {
                "lat": 51.04560960000001,
                "lng": -114.1263224
            }
        },
        {
            "name": "PANORAMA HILLS",
            "fem_5_14": 2074,
            "fem_15_19": 801,
            "male_5_14": 2132,
            "male_15_19": 878,
            "total_male": 3010,
            "total_fem": 2875,
            "total_5_14": 4206,
            "total_15_19": 1679,
            "total": 5885,
            "location": {
                "lat": 51.1594484,
                "lng": -114.081
            }
        },
        {
            "name": "DIAMOND COVE",
            "fem_5_14": 25,
            "fem_15_19": 19,
            "male_5_14": 43,
            "male_15_19": 19,
            "total_male": 62,
            "total_fem": 44,
            "total_5_14": 68,
            "total_15_19": 38,
            "total": 106,
            "location": {
                "lat": 50.9465757,
                "lng": -114.0225076
            }
        },
        {
            "name": "THORNCLIFFE",
            "fem_5_14": 424,
            "fem_15_19": 180,
            "male_5_14": 502,
            "male_15_19": 209,
            "total_male": 711,
            "total_fem": 604,
            "total_5_14": 926,
            "total_15_19": 389,
            "total": 1315,
            "location": {
                "lat": 51.1021067,
                "lng": -114.0642882
            }
        },
        {
            "name": "ROCKY RIDGE",
            "fem_5_14": 574,
            "fem_15_19": 235,
            "male_5_14": 586,
            "male_15_19": 245,
            "total_male": 831,
            "total_fem": 809,
            "total_5_14": 1160,
            "total_15_19": 480,
            "total": 1640,
            "location": {
                "lat": 51.1452693,
                "lng": -114.2469615
            }
        },
        {
            "name": "FOREST HEIGHTS",
            "fem_5_14": 406,
            "fem_15_19": 187,
            "male_5_14": 414,
            "male_15_19": 218,
            "total_male": 632,
            "total_fem": 593,
            "total_5_14": 820,
            "total_15_19": 405,
            "total": 1225,
            "location": {
                "lat": 51.0392772,
                "lng": -113.9713861
            }
        },
        {
            "name": "HAYSBORO",
            "fem_5_14": 237,
            "fem_15_19": 134,
            "male_5_14": 228,
            "male_15_19": 126,
            "total_male": 354,
            "total_fem": 371,
            "total_5_14": 465,
            "total_15_19": 260,
            "total": 725,
            "location": {
                "lat": 50.9700093,
                "lng": -114.086095
            }
        },
        {
            "name": "DOVER",
            "fem_5_14": 523,
            "fem_15_19": 262,
            "male_5_14": 579,
            "male_15_19": 246,
            "total_male": 825,
            "total_fem": 785,
            "total_5_14": 1102,
            "total_15_19": 508,
            "total": 1610,
            "location": {
                "lat": 51.0251956,
                "lng": -113.9852513
            }
        },
        {
            "name": "CRESCENT HEIGHTS",
            "fem_5_14": 133,
            "fem_15_19": 75,
            "male_5_14": 151,
            "male_15_19": 68,
            "total_male": 219,
            "total_fem": 208,
            "total_5_14": 284,
            "total_15_19": 143,
            "total": 427,
            "location": {
                "lat": 51.0632835,
                "lng": -114.0644843
            }
        },
        {
            "name": "LAKE BONAVISTA",
            "fem_5_14": 559,
            "fem_15_19": 297,
            "male_5_14": 644,
            "male_15_19": 330,
            "total_male": 974,
            "total_fem": 856,
            "total_5_14": 1203,
            "total_15_19": 627,
            "total": 1830,
            "location": {
                "lat": 50.9408588,
                "lng": -114.0550349
            }
        },
        {
            "name": "DOUGLASDALE/GLEN",
            "fem_5_14": 727,
            "fem_15_19": 439,
            "male_5_14": 744,
            "male_15_19": 448,
            "total_male": 1192,
            "total_fem": 1166,
            "total_5_14": 1471,
            "total_15_19": 887,
            "total": 2358,
            "location": {
                "lat": 50.953624,
                "lng": -114.0019609
            }
        },
        {
            "name": "SOMERSET",
            "fem_5_14": 573,
            "fem_15_19": 292,
            "male_5_14": 598,
            "male_15_19": 317,
            "total_male": 915,
            "total_fem": 865,
            "total_5_14": 1171,
            "total_15_19": 609,
            "total": 1780,
            "location": {
                "lat": 50.895794,
                "lng": -114.0716167
            }
        },
        {
            "name": "RANCHLANDS",
            "fem_5_14": 446,
            "fem_15_19": 223,
            "male_5_14": 447,
            "male_15_19": 229,
            "total_male": 676,
            "total_fem": 669,
            "total_5_14": 893,
            "total_15_19": 452,
            "total": 1345,
            "location": {
                "lat": 51.119509,
                "lng": -114.1874363
            }
        },
        {
            "name": "SANDSTONE VALLEY",
            "fem_5_14": 302,
            "fem_15_19": 186,
            "male_5_14": 296,
            "male_15_19": 170,
            "total_male": 466,
            "total_fem": 488,
            "total_5_14": 598,
            "total_15_19": 356,
            "total": 954,
            "location": {
                "lat": 51.1390736,
                "lng": -114.0981001
            }
        },
        {
            "name": "HOUNSFIELD HEIGHTS/BRIAR HILL",
            "fem_5_14": 123,
            "fem_15_19": 68,
            "male_5_14": 139,
            "male_15_19": 63,
            "total_male": 202,
            "total_fem": 191,
            "total_5_14": 262,
            "total_15_19": 131,
            "total": 393,
            "location": {
                "lat": 51.06364929999999,
                "lng": -114.1071681
            }
        },
        {
            "name": "SUNDANCE",
            "fem_5_14": 599,
            "fem_15_19": 394,
            "male_5_14": 642,
            "male_15_19": 435,
            "total_male": 1077,
            "total_fem": 993,
            "total_5_14": 1241,
            "total_15_19": 829,
            "total": 2070,
            "location": {
                "lat": 50.8987574,
                "lng": -114.0454829
            }
        },
        {
            "name": "SAGE HILL",
            "fem_5_14": 357,
            "fem_15_19": 103,
            "male_5_14": 324,
            "male_15_19": 102,
            "total_male": 426,
            "total_fem": 460,
            "total_5_14": 681,
            "total_15_19": 205,
            "total": 886,
            "location": {
                "lat": 51.1759895,
                "lng": -114.1455641
            }
        },
        {
            "name": "UNIVERSITY OF CALGARY",
            "fem_5_14": 1,
            "fem_15_19": 529,
            "male_5_14": 1,
            "male_15_19": 388,
            "total_male": 389,
            "total_fem": 530,
            "total_5_14": 2,
            "total_15_19": 917,
            "total": 919,
            "location": {
                "lat": 51.0781599,
                "lng": -114.1358007
            }
        },
        {
            "name": "UPPER MOUNT ROYAL",
            "fem_5_14": 117,
            "fem_15_19": 80,
            "male_5_14": 155,
            "male_15_19": 95,
            "total_male": 250,
            "total_fem": 197,
            "total_5_14": 272,
            "total_15_19": 175,
            "total": 447,
            "location": {
                "lat": 51.0304699,
                "lng": -114.087956
            }
        },
        {
            "name": "EDGEMONT",
            "fem_5_14": 870,
            "fem_15_19": 516,
            "male_5_14": 962,
            "male_15_19": 577,
            "total_male": 1539,
            "total_fem": 1386,
            "total_5_14": 1832,
            "total_15_19": 1093,
            "total": 2925,
            "location": {
                "lat": 51.1199283,
                "lng": -114.1475829
            }
        },
        {
            "name": "KINCORA",
            "fem_5_14": 500,
            "fem_15_19": 155,
            "male_5_14": 528,
            "male_15_19": 151,
            "total_male": 679,
            "total_fem": 655,
            "total_5_14": 1028,
            "total_15_19": 306,
            "total": 1334,
            "location": {
                "lat": 51.1596819,
                "lng": -114.1310079
            }
        },
        {
            "name": "APPLEWOOD PARK",
            "fem_5_14": 411,
            "fem_15_19": 209,
            "male_5_14": 437,
            "male_15_19": 246,
            "total_male": 683,
            "total_fem": 620,
            "total_5_14": 848,
            "total_15_19": 455,
            "total": 1303,
            "location": {
                "lat": 51.0445218,
                "lng": -113.9290811
            }
        },
        {
            "name": "WESTGATE",
            "fem_5_14": 162,
            "fem_15_19": 63,
            "male_5_14": 182,
            "male_15_19": 73,
            "total_male": 255,
            "total_fem": 225,
            "total_5_14": 344,
            "total_15_19": 136,
            "total": 480,
            "location": {
                "lat": 51.0437108,
                "lng": -114.1602621
            }
        },
        {
            "name": "ERLTON",
            "fem_5_14": 22,
            "fem_15_19": 11,
            "male_5_14": 19,
            "male_15_19": 12,
            "total_male": 31,
            "total_fem": 33,
            "total_5_14": 41,
            "total_15_19": 23,
            "total": 64,
            "location": {
                "lat": 51.0299724,
                "lng": -114.0585578
            }
        },
        {
            "name": "MARTINDALE",
            "fem_5_14": 1131,
            "fem_15_19": 492,
            "male_5_14": 1243,
            "male_15_19": 559,
            "total_male": 1802,
            "total_fem": 1623,
            "total_5_14": 2374,
            "total_15_19": 1051,
            "total": 3425,
            "location": {
                "lat": 51.1185378,
                "lng": -113.9633649
            }
        },
        {
            "name": "NOLAN HILL",
            "fem_5_14": 286,
            "fem_15_19": 86,
            "male_5_14": 267,
            "male_15_19": 117,
            "total_male": 384,
            "total_fem": 372,
            "total_5_14": 553,
            "total_15_19": 203,
            "total": 756,
            "location": {
                "lat": 51.1741413,
                "lng": -114.1660409
            }
        },
        {
            "name": "COACH HILL",
            "fem_5_14": 176,
            "fem_15_19": 54,
            "male_5_14": 181,
            "male_15_19": 83,
            "total_male": 264,
            "total_fem": 230,
            "total_5_14": 357,
            "total_15_19": 137,
            "total": 494,
            "location": {
                "lat": 51.0559148,
                "lng": -114.180391
            }
        },
        {
            "name": "ACADIA",
            "fem_5_14": 424,
            "fem_15_19": 224,
            "male_5_14": 413,
            "male_15_19": 242,
            "total_male": 655,
            "total_fem": 648,
            "total_5_14": 837,
            "total_15_19": 466,
            "total": 1303,
            "location": {
                "lat": 50.9702586,
                "lng": -114.0596485
            }
        },
        {
            "name": "COUNTRY HILLS",
            "fem_5_14": 201,
            "fem_15_19": 123,
            "male_5_14": 235,
            "male_15_19": 136,
            "total_male": 371,
            "total_fem": 324,
            "total_5_14": 436,
            "total_15_19": 259,
            "total": 695,
            "location": {
                "lat": 51.1455147,
                "lng": -114.0749562
            }
        },
        {
            "name": "HAWKWOOD",
            "fem_5_14": 511,
            "fem_15_19": 344,
            "male_5_14": 542,
            "male_15_19": 351,
            "total_male": 893,
            "total_fem": 855,
            "total_5_14": 1053,
            "total_15_19": 695,
            "total": 1748,
            "location": {
                "lat": 51.1323255,
                "lng": -114.1775422
            }
        },
        {
            "name": "BONAVISTA DOWNS",
            "fem_5_14": 32,
            "fem_15_19": 14,
            "male_5_14": 49,
            "male_15_19": 16,
            "total_male": 65,
            "total_fem": 46,
            "total_5_14": 81,
            "total_15_19": 30,
            "total": 111,
            "location": {
                "lat": 50.9408588,
                "lng": -114.0550349
            }
        },
        {
            "name": "VARSITY",
            "fem_5_14": 542,
            "fem_15_19": 287,
            "male_5_14": 579,
            "male_15_19": 274,
            "total_male": 853,
            "total_fem": 829,
            "total_5_14": 1121,
            "total_15_19": 561,
            "total": 1682,
            "location": {
                "lat": 51.0949405,
                "lng": -114.1603994
            }
        },
        {
            "name": "COLLINGWOOD",
            "fem_5_14": 111,
            "fem_15_19": 47,
            "male_5_14": 100,
            "male_15_19": 62,
            "total_male": 162,
            "total_fem": 158,
            "total_5_14": 211,
            "total_15_19": 109,
            "total": 320,
            "location": {
                "lat": 51.0846832,
                "lng": -114.0996573
            }
        },
        {
            "name": "QUEENSLAND",
            "fem_5_14": 245,
            "fem_15_19": 118,
            "male_5_14": 243,
            "male_15_19": 116,
            "total_male": 359,
            "total_fem": 363,
            "total_5_14": 488,
            "total_15_19": 234,
            "total": 722,
            "location": {
                "lat": 50.9396012,
                "lng": -114.022812
            }
        },
        {
            "name": "WOODLANDS",
            "fem_5_14": 317,
            "fem_15_19": 149,
            "male_5_14": 385,
            "male_15_19": 201,
            "total_male": 586,
            "total_fem": 466,
            "total_5_14": 702,
            "total_15_19": 350,
            "total": 1052,
            "location": {
                "lat": 50.9372425,
                "lng": -114.1094869
            }
        },
        {
            "name": "OAKRIDGE",
            "fem_5_14": 317,
            "fem_15_19": 159,
            "male_5_14": 321,
            "male_15_19": 173,
            "total_male": 494,
            "total_fem": 476,
            "total_5_14": 638,
            "total_15_19": 332,
            "total": 970,
            "location": {
                "lat": 50.9665054,
                "lng": -114.1273709
            }
        },
        {
            "name": "GLAMORGAN",
            "fem_5_14": 278,
            "fem_15_19": 95,
            "male_5_14": 281,
            "male_15_19": 122,
            "total_male": 403,
            "total_fem": 373,
            "total_5_14": 559,
            "total_15_19": 217,
            "total": 776,
            "location": {
                "lat": 51.0150962,
                "lng": -114.151853
            }
        },
        {
            "name": "ELBOYA",
            "fem_5_14": 119,
            "fem_15_19": 54,
            "male_5_14": 111,
            "male_15_19": 70,
            "total_male": 181,
            "total_fem": 173,
            "total_5_14": 230,
            "total_15_19": 124,
            "total": 354,
            "location": {
                "lat": 51.0127634,
                "lng": -114.0739992
            }
        },
        {
            "name": "WINDSOR PARK",
            "fem_5_14": 112,
            "fem_15_19": 64,
            "male_5_14": 120,
            "male_15_19": 51,
            "total_male": 171,
            "total_fem": 176,
            "total_5_14": 232,
            "total_15_19": 115,
            "total": 347,
            "location": {
                "lat": 51.0057183,
                "lng": -114.0809141
            }
        },
        {
            "name": "BOWNESS",
            "fem_5_14": 418,
            "fem_15_19": 190,
            "male_5_14": 444,
            "male_15_19": 227,
            "total_male": 671,
            "total_fem": 608,
            "total_5_14": 862,
            "total_15_19": 417,
            "total": 1279,
            "location": {
                "lat": 51.0899034,
                "lng": -114.1959889
            }
        },
        {
            "name": "WHITEHORN",
            "fem_5_14": 746,
            "fem_15_19": 389,
            "male_5_14": 772,
            "male_15_19": 369,
            "total_male": 1141,
            "total_fem": 1135,
            "total_5_14": 1518,
            "total_15_19": 758,
            "total": 2276,
            "location": {
                "lat": 51.0889493,
                "lng": -113.9720765
            }
        },
        {
            "name": "SHAWNEE SLOPES",
            "fem_5_14": 57,
            "fem_15_19": 40,
            "male_5_14": 53,
            "male_15_19": 45,
            "total_male": 98,
            "total_fem": 97,
            "total_5_14": 110,
            "total_15_19": 85,
            "total": 195,
            "location": {
                "lat": 50.9251082,
                "lng": -114.082846
            }
        },
        {
            "name": "MARLBOROUGH PARK",
            "fem_5_14": 524,
            "fem_15_19": 260,
            "male_5_14": 589,
            "male_15_19": 253,
            "total_male": 842,
            "total_fem": 784,
            "total_5_14": 1113,
            "total_15_19": 513,
            "total": 1626,
            "location": {
                "lat": 51.0612089,
                "lng": -113.9468569
            }
        },
        {
            "name": "MAHOGANY",
            "fem_5_14": 509,
            "fem_15_19": 108,
            "male_5_14": 543,
            "male_15_19": 116,
            "total_male": 659,
            "total_fem": 617,
            "total_5_14": 1052,
            "total_15_19": 224,
            "total": 1276,
            "location": {
                "lat": 50.9001503,
                "lng": -113.9249151
            }
        },
        {
            "name": "SPRUCE CLIFF",
            "fem_5_14": 181,
            "fem_15_19": 89,
            "male_5_14": 198,
            "male_15_19": 85,
            "total_male": 283,
            "total_fem": 270,
            "total_5_14": 379,
            "total_15_19": 174,
            "total": 553,
            "location": {
                "lat": 51.0494093,
                "lng": -114.1342633
            }
        },
        {
            "name": "PARKLAND",
            "fem_5_14": 198,
            "fem_15_19": 112,
            "male_5_14": 234,
            "male_15_19": 100,
            "total_male": 334,
            "total_fem": 310,
            "total_5_14": 432,
            "total_15_19": 212,
            "total": 644,
            "location": {
                "lat": 50.9255364,
                "lng": -114.0366237
            }
        },
        {
            "name": "CASTLERIDGE",
            "fem_5_14": 438,
            "fem_15_19": 196,
            "male_5_14": 485,
            "male_15_19": 190,
            "total_male": 675,
            "total_fem": 634,
            "total_5_14": 923,
            "total_15_19": 386,
            "total": 1309,
            "location": {
                "lat": 51.10691749999999,
                "lng": -113.9594776
            }
        },
        {
            "name": "KINGSLAND",
            "fem_5_14": 165,
            "fem_15_19": 93,
            "male_5_14": 164,
            "male_15_19": 107,
            "total_male": 271,
            "total_fem": 258,
            "total_5_14": 329,
            "total_15_19": 200,
            "total": 529,
            "location": {
                "lat": 50.9871451,
                "lng": -114.0772915
            }
        },
        {
            "name": "DALHOUSIE",
            "fem_5_14": 425,
            "fem_15_19": 232,
            "male_5_14": 520,
            "male_15_19": 262,
            "total_male": 782,
            "total_fem": 657,
            "total_5_14": 945,
            "total_15_19": 494,
            "total": 1439,
            "location": {
                "lat": 51.108926,
                "lng": -114.1598321
            }
        },
        {
            "name": "PALLISER",
            "fem_5_14": 161,
            "fem_15_19": 55,
            "male_5_14": 160,
            "male_15_19": 74,
            "total_male": 234,
            "total_fem": 216,
            "total_5_14": 321,
            "total_15_19": 129,
            "total": 450,
            "location": {
                "lat": 51.0443048,
                "lng": -114.0649776
            }
        },
        {
            "name": "ALBERT PARK/RADISSON HEIGHTS",
            "fem_5_14": 317,
            "fem_15_19": 144,
            "male_5_14": 377,
            "male_15_19": 167,
            "total_male": 544,
            "total_fem": 461,
            "total_5_14": 694,
            "total_15_19": 311,
            "total": 1005,
            "location": {
                "lat": 51.0437281,
                "lng": -113.9954485
            }
        },
        {
            "name": "NORTH GLENMORE PARK",
            "fem_5_14": 115,
            "fem_15_19": 62,
            "male_5_14": 148,
            "male_15_19": 66,
            "total_male": 214,
            "total_fem": 177,
            "total_5_14": 263,
            "total_15_19": 128,
            "total": 391,
            "location": {
                "lat": 50.991341,
                "lng": -114.118069
            }
        },
        {
            "name": "ALTADORE",
            "fem_5_14": 344,
            "fem_15_19": 139,
            "male_5_14": 381,
            "male_15_19": 115,
            "total_male": 496,
            "total_fem": 483,
            "total_5_14": 725,
            "total_15_19": 254,
            "total": 979,
            "location": {
                "lat": 51.016374,
                "lng": -114.101787
            }
        },
        {
            "name": "QUEENS PARK VILLAGE",
            "fem_5_14": 22,
            "fem_15_19": 10,
            "male_5_14": 33,
            "male_15_19": 18,
            "total_male": 51,
            "total_fem": 32,
            "total_5_14": 55,
            "total_15_19": 28,
            "total": 83,
            "location": {
                "lat": 51.08689280000001,
                "lng": -114.0731893
            }
        },
        {
            "name": "ERIN WOODS",
            "fem_5_14": 511,
            "fem_15_19": 201,
            "male_5_14": 495,
            "male_15_19": 217,
            "total_male": 712,
            "total_fem": 712,
            "total_5_14": 1006,
            "total_15_19": 418,
            "total": 1424,
            "location": {
                "lat": 51.0222463,
                "lng": -113.967013
            }
        },
        {
            "name": "PINERIDGE",
            "fem_5_14": 552,
            "fem_15_19": 268,
            "male_5_14": 590,
            "male_15_19": 235,
            "total_male": 825,
            "total_fem": 820,
            "total_5_14": 1142,
            "total_15_19": 503,
            "total": 1645,
            "location": {
                "lat": 51.07206859999999,
                "lng": -113.9478286
            }
        },
        {
            "name": "RED CARPET",
            "fem_5_14": 50,
            "fem_15_19": 12,
            "male_5_14": 34,
            "male_15_19": 22,
            "total_male": 56,
            "total_fem": 62,
            "total_5_14": 84,
            "total_15_19": 34,
            "total": 118,
            "location": {
                "lat": 51.0706351,
                "lng": -114.1624027
            }
        },
        {
            "name": "FOREST LAWN",
            "fem_5_14": 369,
            "fem_15_19": 177,
            "male_5_14": 416,
            "male_15_19": 179,
            "total_male": 595,
            "total_fem": 546,
            "total_5_14": 785,
            "total_15_19": 356,
            "total": 1141,
            "location": {
                "lat": 51.0392772,
                "lng": -113.9713861
            }
        },
        {
            "name": "WILLOW PARK",
            "fem_5_14": 246,
            "fem_15_19": 127,
            "male_5_14": 264,
            "male_15_19": 159,
            "total_male": 423,
            "total_fem": 373,
            "total_5_14": 510,
            "total_15_19": 286,
            "total": 796,
            "location": {
                "lat": 50.954809,
                "lng": -114.0544374
            }
        },
        {
            "name": "PARKDALE",
            "fem_5_14": 87,
            "fem_15_19": 29,
            "male_5_14": 80,
            "male_15_19": 43,
            "total_male": 123,
            "total_fem": 116,
            "total_5_14": 167,
            "total_15_19": 72,
            "total": 239,
            "location": {
                "lat": 51.0602636,
                "lng": -114.13529
            }
        },
        {
            "name": "ROSEMONT",
            "fem_5_14": 66,
            "fem_15_19": 21,
            "male_5_14": 55,
            "male_15_19": 29,
            "total_male": 84,
            "total_fem": 87,
            "total_5_14": 121,
            "total_15_19": 50,
            "total": 171,
            "location": {
                "lat": 51.0785697,
                "lng": -114.0896031
            }
        },
        {
            "name": "NEW BRIGHTON",
            "fem_5_14": 879,
            "fem_15_19": 245,
            "male_5_14": 880,
            "male_15_19": 233,
            "total_male": 1113,
            "total_fem": 1124,
            "total_5_14": 1759,
            "total_15_19": 478,
            "total": 2237,
            "location": {
                "lat": 50.9185472,
                "lng": -113.9482435
            }
        },
        {
            "name": "MAYLAND HEIGHTS",
            "fem_5_14": 220,
            "fem_15_19": 109,
            "male_5_14": 250,
            "male_15_19": 118,
            "total_male": 368,
            "total_fem": 329,
            "total_5_14": 470,
            "total_15_19": 227,
            "total": 697,
            "location": {
                "lat": 51.0575284,
                "lng": -114.0146944
            }
        },
        {
            "name": "SUNALTA",
            "fem_5_14": 81,
            "fem_15_19": 30,
            "male_5_14": 79,
            "male_15_19": 25,
            "total_male": 104,
            "total_fem": 111,
            "total_5_14": 160,
            "total_15_19": 55,
            "total": 215,
            "location": {
                "lat": 51.0450597,
                "lng": -114.1035293
            }
        },
        {
            "name": "BRIDGELAND/RIVERSIDE",
            "fem_5_14": 142,
            "fem_15_19": 50,
            "male_5_14": 157,
            "male_15_19": 44,
            "total_male": 201,
            "total_fem": 192,
            "total_5_14": 299,
            "total_15_19": 94,
            "total": 393,
            "location": {
                "lat": 51.052672,
                "lng": -114.036979
            }
        },
        {
            "name": "LAKEVIEW",
            "fem_5_14": 327,
            "fem_15_19": 147,
            "male_5_14": 297,
            "male_15_19": 159,
            "total_male": 456,
            "total_fem": 474,
            "total_5_14": 624,
            "total_15_19": 306,
            "total": 930,
            "location": {
                "lat": 50.9944205,
                "lng": -114.1262246
            }
        },
        {
            "name": "VISTA HEIGHTS",
            "fem_5_14": 172,
            "fem_15_19": 44,
            "male_5_14": 203,
            "male_15_19": 53,
            "total_male": 256,
            "total_fem": 216,
            "total_5_14": 375,
            "total_15_19": 97,
            "total": 472,
            "location": {
                "lat": 51.0746252,
                "lng": -114.012466
            }
        },
        {
            "name": "BEDDINGTON HEIGHTS",
            "fem_5_14": 668,
            "fem_15_19": 286,
            "male_5_14": 668,
            "male_15_19": 316,
            "total_male": 984,
            "total_fem": 954,
            "total_5_14": 1336,
            "total_15_19": 602,
            "total": 1938,
            "location": {
                "lat": 51.131457,
                "lng": -114.0821962
            }
        },
        {
            "name": "WINSTON HEIGHTS/MOUNTVIEW",
            "fem_5_14": 130,
            "fem_15_19": 49,
            "male_5_14": 128,
            "male_15_19": 62,
            "total_male": 190,
            "total_fem": 179,
            "total_5_14": 258,
            "total_15_19": 111,
            "total": 369,
            "location": {
                "lat": 51.0743871,
                "lng": -114.0389758
            }
        },
        {
            "name": "LEGACY",
            "fem_5_14": 149,
            "fem_15_19": 50,
            "male_5_14": 161,
            "male_15_19": 63,
            "total_male": 224,
            "total_fem": 199,
            "total_5_14": 310,
            "total_15_19": 113,
            "total": 423,
            "location": {
                "lat": 50.8606972,
                "lng": -114.0174672
            }
        },
        {
            "name": "ABBEYDALE",
            "fem_5_14": 371,
            "fem_15_19": 168,
            "male_5_14": 396,
            "male_15_19": 191,
            "total_male": 587,
            "total_fem": 539,
            "total_5_14": 767,
            "total_15_19": 359,
            "total": 1126,
            "location": {
                "lat": 51.0598094,
                "lng": -113.9278024
            }
        },
        {
            "name": "SETON",
            "fem_5_14": 0,
            "fem_15_19": 0,
            "male_5_14": 0,
            "male_15_19": 0,
            "total_male": 0,
            "total_fem": 0,
            "total_5_14": 0,
            "total_15_19": 0,
            "total": 0,
            "location": {
                "lat": 50.87903559999999,
                "lng": -113.9522338
            }
        },
        {
            "name": "ROYAL OAK",
            "fem_5_14": 969,
            "fem_15_19": 340,
            "male_5_14": 873,
            "male_15_19": 361,
            "total_male": 1234,
            "total_fem": 1309,
            "total_5_14": 1842,
            "total_15_19": 701,
            "total": 2543,
            "location": {
                "lat": 51.1455683,
                "lng": -114.2203617
            }
        },
        {
            "name": "CHINOOK PARK",
            "fem_5_14": 102,
            "fem_15_19": 60,
            "male_5_14": 107,
            "male_15_19": 51,
            "total_male": 158,
            "total_fem": 162,
            "total_5_14": 209,
            "total_15_19": 111,
            "total": 320,
            "location": {
                "lat": 50.9815974,
                "lng": -114.0900148
            }
        },
        {
            "name": "MEADOWLARK PARK",
            "fem_5_14": 29,
            "fem_15_19": 11,
            "male_5_14": 28,
            "male_15_19": 11,
            "total_male": 39,
            "total_fem": 40,
            "total_5_14": 57,
            "total_15_19": 22,
            "total": 79,
            "location": {
                "lat": 50.99836310000001,
                "lng": -114.0797555
            }
        },
        {
            "name": "RICHMOND",
            "fem_5_14": 192,
            "fem_15_19": 83,
            "male_5_14": 206,
            "male_15_19": 69,
            "total_male": 275,
            "total_fem": 275,
            "total_5_14": 398,
            "total_15_19": 152,
            "total": 550,
            "location": {
                "lat": 51.0340771,
                "lng": -114.1157609
            }
        },
        {
            "name": "PARKHILL",
            "fem_5_14": 64,
            "fem_15_19": 44,
            "male_5_14": 64,
            "male_15_19": 47,
            "total_male": 111,
            "total_fem": 108,
            "total_5_14": 128,
            "total_15_19": 91,
            "total": 219,
            "location": {
                "lat": 51.0178759,
                "lng": -114.0664294
            }
        },
        {
            "name": "NORTH HAVEN",
            "fem_5_14": 128,
            "fem_15_19": 45,
            "male_5_14": 125,
            "male_15_19": 63,
            "total_male": 188,
            "total_fem": 173,
            "total_5_14": 253,
            "total_15_19": 108,
            "total": 361,
            "location": {
                "lat": 51.0979828,
                "lng": -114.0895174
            }
        },
        {
            "name": "ASPEN WOODS",
            "fem_5_14": 751,
            "fem_15_19": 257,
            "male_5_14": 810,
            "male_15_19": 266,
            "total_male": 1076,
            "total_fem": 1008,
            "total_5_14": 1561,
            "total_15_19": 523,
            "total": 2084,
            "location": {
                "lat": 51.044849,
                "lng": -114.1992419
            }
        },
        {
            "name": "ROXBORO",
            "fem_5_14": 27,
            "fem_15_19": 10,
            "male_5_14": 35,
            "male_15_19": 13,
            "total_male": 48,
            "total_fem": 37,
            "total_5_14": 62,
            "total_15_19": 23,
            "total": 85,
            "location": {
                "lat": 51.0260131,
                "lng": -114.0671845
            }
        },
        {
            "name": "FALCONRIDGE",
            "fem_5_14": 869,
            "fem_15_19": 312,
            "male_5_14": 920,
            "male_15_19": 344,
            "total_male": 1264,
            "total_fem": 1181,
            "total_5_14": 1789,
            "total_15_19": 656,
            "total": 2445,
            "location": {
                "lat": 51.1000332,
                "lng": -113.946541
            }
        },
        {
            "name": "EVANSTON",
            "fem_5_14": 1037,
            "fem_15_19": 287,
            "male_5_14": 1103,
            "male_15_19": 318,
            "total_male": 1421,
            "total_fem": 1324,
            "total_5_14": 2140,
            "total_15_19": 605,
            "total": 2745,
            "location": {
                "lat": 51.1734799,
                "lng": -114.108402
            }
        },
        {
            "name": "SHAWNESSY",
            "fem_5_14": 434,
            "fem_15_19": 297,
            "male_5_14": 513,
            "male_15_19": 350,
            "total_male": 863,
            "total_fem": 731,
            "total_5_14": 947,
            "total_15_19": 647,
            "total": 1594,
            "location": {
                "lat": 50.90960889999999,
                "lng": -114.0842303
            }
        },
        {
            "name": "SPRINGBANK HILL",
            "fem_5_14": 785,
            "fem_15_19": 363,
            "male_5_14": 829,
            "male_15_19": 380,
            "total_male": 1209,
            "total_fem": 1148,
            "total_5_14": 1614,
            "total_15_19": 743,
            "total": 2357,
            "location": {
                "lat": 51.02775820000001,
                "lng": -114.2013866
            }
        },
        {
            "name": "SHERWOOD",
            "fem_5_14": 378,
            "fem_15_19": 189,
            "male_5_14": 352,
            "male_15_19": 196,
            "total_male": 548,
            "total_fem": 567,
            "total_5_14": 730,
            "total_15_19": 385,
            "total": 1115,
            "location": {
                "lat": 51.15734,
                "lng": -114.148619
            }
        },
        {
            "name": "CORAL SPRINGS",
            "fem_5_14": 294,
            "fem_15_19": 181,
            "male_5_14": 360,
            "male_15_19": 237,
            "total_male": 597,
            "total_fem": 475,
            "total_5_14": 654,
            "total_15_19": 418,
            "total": 1072,
            "location": {
                "lat": 51.1048726,
                "lng": -113.924232
            }
        },
        {
            "name": "SADDLE RIDGE",
            "fem_5_14": 1520,
            "fem_15_19": 603,
            "male_5_14": 1646,
            "male_15_19": 630,
            "total_male": 2276,
            "total_fem": 2123,
            "total_5_14": 3166,
            "total_15_19": 1233,
            "total": 4399,
            "location": {
                "lat": 51.1326929,
                "lng": -113.9428229
            }
        },
        {
            "name": "CRANSTON",
            "fem_5_14": 1477,
            "fem_15_19": 372,
            "male_5_14": 1549,
            "male_15_19": 359,
            "total_male": 1908,
            "total_fem": 1849,
            "total_5_14": 3026,
            "total_15_19": 731,
            "total": 3757,
            "location": {
                "lat": 50.8890954,
                "lng": -113.9809004
            }
        },
        {
            "name": "COVENTRY HILLS",
            "fem_5_14": 1389,
            "fem_15_19": 506,
            "male_5_14": 1506,
            "male_15_19": 582,
            "total_male": 2088,
            "total_fem": 1895,
            "total_5_14": 2895,
            "total_15_19": 1088,
            "total": 3983,
            "location": {
                "lat": 51.1659498,
                "lng": -114.0511987
            }
        },
        {
            "name": "CARRINGTON",
            "fem_5_14": 0,
            "fem_15_19": 0,
            "male_5_14": 0,
            "male_15_19": 0,
            "total_male": 0,
            "total_fem": 0,
            "total_5_14": 0,
            "total_15_19": 0,
            "total": 0,
            "location": {
                "lat": 51.042657,
                "lng": -114.085086
            }
        },
        {
            "name": "LIVINGSTON",
            "fem_5_14": 0,
            "fem_15_19": 0,
            "male_5_14": 0,
            "male_15_19": 0,
            "total_male": 0,
            "total_fem": 0,
            "total_5_14": 0,
            "total_15_19": 0,
            "total": 0,
            "location": {
                "lat": 51.067844,
                "lng": -114.01637
            }
        },
        {
            "name": "SCENIC ACRES",
            "fem_5_14": 398,
            "fem_15_19": 295,
            "male_5_14": 454,
            "male_15_19": 321,
            "total_male": 775,
            "total_fem": 693,
            "total_5_14": 852,
            "total_15_19": 616,
            "total": 1468,
            "location": {
                "lat": 51.117584,
                "lng": -114.2214552
            }
        },
        {
            "name": "ARBOUR LAKE",
            "fem_5_14": 622,
            "fem_15_19": 429,
            "male_5_14": 656,
            "male_15_19": 456,
            "total_male": 1112,
            "total_fem": 1051,
            "total_5_14": 1278,
            "total_15_19": 885,
            "total": 2163,
            "location": {
                "lat": 51.1333565,
                "lng": -114.2001695
            }
        },
        {
            "name": "VALLEY RIDGE",
            "fem_5_14": 385,
            "fem_15_19": 165,
            "male_5_14": 370,
            "male_15_19": 190,
            "total_male": 560,
            "total_fem": 550,
            "total_5_14": 755,
            "total_15_19": 355,
            "total": 1110,
            "location": {
                "lat": 51.0939246,
                "lng": -114.253356
            }
        },
        {
            "name": "UNIVERSITY DISTRICT",
            "fem_5_14": 59,
            "fem_15_19": 3,
            "male_5_14": 74,
            "male_15_19": 4,
            "total_male": 78,
            "total_fem": 62,
            "total_5_14": 133,
            "total_15_19": 7,
            "total": 140,
            "location": {
                "lat": 51.0794659,
                "lng": -114.1490406
            }
        },
        {
            "name": "REDSTONE",
            "fem_5_14": 154,
            "fem_15_19": 45,
            "male_5_14": 175,
            "male_15_19": 66,
            "total_male": 241,
            "total_fem": 199,
            "total_5_14": 329,
            "total_15_19": 111,
            "total": 440,
            "location": {
                "lat": 51.1706454,
                "lng": -113.9595015
            }
        },
        {
            "name": "SKYVIEW RANCH",
            "fem_5_14": 555,
            "fem_15_19": 175,
            "male_5_14": 605,
            "male_15_19": 216,
            "total_male": 821,
            "total_fem": 730,
            "total_5_14": 1160,
            "total_15_19": 391,
            "total": 1551,
            "location": {
                "lat": 51.1597684,
                "lng": -113.9585266
            }
        },
        {
            "name": "GARRISON WOODS",
            "fem_5_14": 227,
            "fem_15_19": 52,
            "male_5_14": 190,
            "male_15_19": 77,
            "total_male": 267,
            "total_fem": 279,
            "total_5_14": 417,
            "total_15_19": 129,
            "total": 546,
            "location": {
                "lat": 51.02201650000001,
                "lng": -114.1162435
            }
        },
        {
            "name": "CORNERSTONE",
            "fem_5_14": 0,
            "fem_15_19": 0,
            "male_5_14": 0,
            "male_15_19": 0,
            "total_male": 0,
            "total_fem": 0,
            "total_5_14": 0,
            "total_15_19": 0,
            "total": 0,
            "location": {
                "lat": 50.950157,
                "lng": -113.985855
            }
        },
        {
            "name": "YORKVILLE",
            "fem_5_14": 0,
            "fem_15_19": 0,
            "male_5_14": 0,
            "male_15_19": 0,
            "total_male": 0,
            "total_fem": 0,
            "total_5_14": 0,
            "total_15_19": 0,
            "total": 0,
            "location": {
                "lat": 51.0757766,
                "lng": -113.9925956
            }
        },
        {
            "name": "SILVERADO",
            "fem_5_14": 450,
            "fem_15_19": 170,
            "male_5_14": 464,
            "male_15_19": 181,
            "total_male": 645,
            "total_fem": 620,
            "total_5_14": 914,
            "total_15_19": 351,
            "total": 1265,
            "location": {
                "lat": 50.8833507,
                "lng": -114.0780035
            }
        },
        {
            "name": "BELMONT",
            "fem_5_14": 0,
            "fem_15_19": 0,
            "male_5_14": 0,
            "male_15_19": 0,
            "total_male": 0,
            "total_fem": 0,
            "total_5_14": 0,
            "total_15_19": 0,
            "total": 0,
            "location": {
                "lat": 51.0241608,
                "lng": -114.1074888
            }
        },
        {
            "name": "HIGHWOOD",
            "fem_5_14": 126,
            "fem_15_19": 57,
            "male_5_14": 118,
            "male_15_19": 56,
            "total_male": 174,
            "total_fem": 183,
            "total_5_14": 244,
            "total_15_19": 113,
            "total": 357,
            "location": {
                "lat": 51.0918669,
                "lng": -114.0794622
            }
        },
        {
            "name": "EVERGREEN",
            "fem_5_14": 1671,
            "fem_15_19": 655,
            "male_5_14": 1751,
            "male_15_19": 696,
            "total_male": 2447,
            "total_fem": 2326,
            "total_5_14": 3422,
            "total_15_19": 1351,
            "total": 4773,
            "location": {
                "lat": 50.9139578,
                "lng": -114.1148502
            }
        },
        {
            "name": "BANFF TRAIL",
            "fem_5_14": 107,
            "fem_15_19": 75,
            "male_5_14": 108,
            "male_15_19": 82,
            "total_male": 190,
            "total_fem": 182,
            "total_5_14": 215,
            "total_15_19": 157,
            "total": 372,
            "location": {
                "lat": 51.0760015,
                "lng": -114.1140169
            }
        }
    ]
}